SALE TYPE,SOLD DATE,PROPERTY TYPE,ADDRESS,CITY,STATE OR PROVINCE,ZIP OR POSTAL CODE,PRICE,BEDS,BATHS,LOCATION,SQUARE FEET,LOT SIZE,YEAR BUILT,DAYS ON MARKET,$/SQUARE FEET,HOA/MONTH,STATUS,NEXT OPEN HOUSE START TIME,NEXT OPEN HOUSE END TIME,URL (SEE http://www.redfin.com/buy-a-home/comparative-market-analysis FOR INFO ON PRICING),SOURCE,MLS#,FAVORITE,INTERESTED,LATITUDE,LONGITUDE
PAST SALE,August-16-2019,Townhouse,1803 Queen Victoria Way,SAN JOSE,CA,95132,800000,4,2.5,SAN JOSE,1474,1055,1970,233,543,235,Sold,,,http://www.redfin.com/CA/San-Jose/1803-Queen-Victoria-Way-95132/home/1503891,MLSListings,ML81753865,N,Y,37.4127,-121.852216
PAST SALE,November-6-2019,Condo/Co-op,1302 N Capitol Ave #2,SAN JOSE,CA,95132,810088,2,2.5,SAN JOSE,1450,1300,2014,151,559,210,Sold,,,http://www.redfin.com/CA/San-Jose/1302-N-Capitol-Ave-95132/unit-2/home/95955751,MLSListings,ML81769378,N,Y,37.3916832,-121.8653661
PAST SALE,June-17-2019,Condo/Co-op,1888 Piedmont Rd,SAN JOSE,CA,95132,600000,2,1.0,SAN JOSE,884,1440,1971,293,679,230,Sold,,,http://www.redfin.com/CA/San-Jose/1888-Piedmont-Rd-95132/home/934826,MLSListings,ML81737666,N,Y,37.413689,-121.854528
PAST SALE,June-25-2019,Vacant Land,0 Boulder Dr,SAN JOSE,CA,95132,186000,,,SAN JOSE,,17491,,285,,,Sold,,,http://www.redfin.com/CA/San-Jose/Boulder-Dr-95132/home/161056646,MLSListings,ML81755486,N,Y,37.399133,-121.822878
PAST SALE,November-21-2019,Single Family Residential,2057 Stonewood Ln,SAN JOSE,CA,95132,1050000,4,2.0,SAN JOSE,1480,6307,1970,136,709,,Sold,,,http://www.redfin.com/CA/San-Jose/2057-Stonewood-Ln-95132/home/571467,MLSListings,ML81773707,N,Y,37.416563,-121.8621985
PAST SALE,December-13-2019,Single Family Residential,1987 Majestic Way,SAN JOSE,CA,95132,1072500,3,2.0,SAN JOSE,1372,6202,1971,114,782,,Sold,,,http://www.redfin.com/CA/San-Jose/1987-Majestic-Way-95132/home/1127159,MLSListings,ML81775082,N,Y,37.4134802,-121.8569504
PAST SALE,,Single Family Residential,3568 Briarbrook Ct,San Jose,CA,95132,1230000,4,2.0,,1383,7267,1971,,889,,,,,http://www.redfin.com/CA/San-Jose/3568-Briarbrook-Ct-95132/home/1231768,,,N,Y,37.4149484,-121.8574397
PAST SALE,March-17-2020,Single Family Residential,1918 Conifer Ct,SAN JOSE,CA,95132,1330000,4,2.5,SAN JOSE,1786,7920,1968,19,745,,Sold,,,http://www.redfin.com/CA/San-Jose/1918-Conifer-Ct-95132/home/1149160,MLSListings,ML81780553,N,Y,37.4137598,-121.862154
PAST SALE,June-3-2019,Single Family Residential,3146 Penitencia Creek Rd,SAN JOSE,CA,95132,1280000,4,2.5,SAN JOSE,1971,6882,1976,307,649,,Sold,,,http://www.redfin.com/CA/San-Jose/3146-Penitencia-Creek-Rd-95132/home/1497494,MLSListings,ML81749820,N,Y,37.3894593,-121.8442295
PAST SALE,June-14-2019,Single Family Residential,3259 Fleur De Lis Ct,SAN JOSE,CA,95132,1185000,4,2.0,SAN JOSE,2034,6236,1976,296,583,,Sold,,,http://www.redfin.com/CA/San-Jose/3259-Fleur-De-Lis-Ct-95132/home/1545124,MLSListings,ML81748127,N,Y,37.3936683,-121.8434734
PAST SALE,July-29-2019,Single Family Residential,2682 Brookhollow Dr,SAN JOSE,CA,95132,1427000,5,3.0,SAN JOSE,2410,4303,1997,251,592,,Sold,,,http://www.redfin.com/CA/San-Jose/2682-Brookhollow-Dr-95132/home/1072467,MLSListings,ML81756063,N,Y,37.3921198,-121.8679355
PAST SALE,August-14-2019,Single Family Residential,2886 Bellini Ct,SAN JOSE,CA,95132,1125000,3,2.0,SAN JOSE,1663,6729,1970,235,676,,Sold,,,http://www.redfin.com/CA/San-Jose/2886-Bellini-Ct-95132/home/1388358,MLSListings,ML81760044,N,Y,37.3983326,-121.859619
PAST SALE,August-23-2019,Single Family Residential,2772 Longford Dr,SAN JOSE,CA,95132,1125000,5,2.5,SAN JOSE,1938,6520,1964,226,580,,Sold,,,http://www.redfin.com/CA/San-Jose/2772-Longford-Dr-95132/home/938081,MLSListings,ML81754377,N,Y,37.3964373,-121.8666903
PAST SALE,November-1-2019,Single Family Residential,3468 Whitman Way,SAN JOSE,CA,95132,1050000,3,2.5,SAN JOSE,1705,7800,1965,156,616,,Sold,,,http://www.redfin.com/CA/San-Jose/3468-Whitman-Way-95132/home/1145643,MLSListings,ML81771707,N,Y,37.3967014,-121.8384913
PAST SALE,November-12-2019,Condo/Co-op,1308 Bernoulli Pl #7,SAN JOSE,CA,95132,1108000,4,3.5,SAN JOSE,2068,1300,2014,145,536,210,Sold,,,http://www.redfin.com/CA/San-Jose/1308-Bernoulli-Pl-95132/unit-7/home/62324233,MLSListings,ML81767490,N,Y,37.3920228,-121.8653305
PAST SALE,,Single Family Residential,2739 Longford Dr,San Jose,CA,95132,920000,3,2.0,,1260,5859,1964,,730,,,,,http://www.redfin.com/CA/San-Jose/2739-Longford-Dr-95132/home/938064,,,N,Y,37.3957825,-121.8689361
PAST SALE,December-26-2019,Single Family Residential,2654 Olivestone Way,SAN JOSE,CA,95132,1030000,4,2.0,SAN JOSE,1480,5951,1977,101,696,,Sold,,,http://www.redfin.com/CA/San-Jose/2654-Olivestone-Way-95132/home/167050967,MLSListings,ML81772032,N,Y,37.3927373,-121.8697588
PAST SALE,December-20-2019,Single Family Residential,3144 Vesuvius Ln,SAN JOSE,CA,95132,1130000,3,2.0,SAN JOSE,1300,6175,1960,107,869,,Sold,,,http://www.redfin.com/CA/San-Jose/3144-Vesuvius-Ln-95132/home/737483,MLSListings,ML81775898,N,Y,37.398307,-121.8514353
PAST SALE,January-10-2020,Single Family Residential,1145 Donnora Ct,SAN JOSE,CA,95132,1340000,4,2.5,SAN JOSE,2150,7104,1972,86,623,,Sold,,,http://www.redfin.com/CA/San-Jose/1145-Donnora-Ct-95132/home/668715,MLSListings,ML81773381,N,Y,37.3948632,-121.8480104
PAST SALE,February-4-2020,Single Family Residential,1324 Morrill Ave,San Jose,CA,95132,1145000,4,2.0,San Jose,1660,6780,1969,61,690,,Sold,,,http://www.redfin.com/CA/San-Jose/1324-Morrill-Ave-95132/home/587702,Bridge MLS,40890746,N,Y,37.3949022,-121.8595967
PAST SALE,April-16-2019,Single Family Residential,3282 Tulipwood Ln,SAN JOSE,CA,95132,1080000,3,2.0,SAN JOSE,1300,6160,1964,355,831,27,Sold,,,http://www.redfin.com/CA/San-Jose/3282-Tulipwood-Ln-95132/home/571095,MLSListings,ML81741840,N,Y,37.4166218,-121.867135
PAST SALE,June-20-2019,Single Family Residential,2006 Lockwood Dr,SAN JOSE,CA,95132,1106652,4,2.0,SAN JOSE,1610,6431,1969,290,687,,Sold,,,http://www.redfin.com/CA/San-Jose/2006-Lockwood-Dr-95132/home/641807,MLSListings,ML81752433,N,Y,37.4147963,-121.8595745
PAST SALE,August-14-2019,Townhouse,1924 Piedmont Rd,SAN JOSE,CA,95132,620000,2,1.5,SAN JOSE,988,760,1970,235,628,235,Sold,,,http://www.redfin.com/CA/San-Jose/1924-Piedmont-Rd-95132/home/875542,MLSListings,ML81757529,N,Y,37.414476,-121.855053
PAST SALE,August-23-2019,Single Family Residential,2929 Via Encinitas,SAN JOSE,CA,95132,1075000,5,2.5,SAN JOSE,2002,6213,1969,226,537,,Sold,,,http://www.redfin.com/CA/San-Jose/2929-Via-Encinitas-95132/home/1461755,MLSListings,ML81745308,N,Y,37.4092794,-121.8769628
PAST SALE,September-27-2019,Single Family Residential,2960 Knights Bridge Rd,SAN JOSE,CA,95132,1050000,3,2.0,SAN JOSE,1425,6002,1970,191,737,,Sold,,,http://www.redfin.com/CA/San-Jose/2960-Knights-Bridge-Rd-95132/home/937581,MLSListings,ML81762308,N,Y,37.4045298,-121.8657563
PAST SALE,October-2-2019,Single Family Residential,1514 JAPAUL Ln,SAN JOSE,CA,95132,1000000,3,2.0,SAN JOSE,1440,6729,1971,186,694,,Sold,,,http://www.redfin.com/CA/San-Jose/1514-Japaul-Ln-95132/home/1606130,MLSListings,ML81756132,N,Y,37.4075125,-121.8560609
PAST SALE,October-16-2019,Townhouse,1928 Messina Dr,SAN JOSE,CA,95132,630000,2,1.0,SAN JOSE,968,704,1972,172,651,380,Sold,,,http://www.redfin.com/CA/San-Jose/1928-Messina-Dr-95132/home/1480672,MLSListings,ML81766360,N,Y,37.411104,-121.861784
PAST SALE,February-27-2020,Single Family Residential,1580 Wharton Rd,San Jose,CA,95132,1550000,5,3.0,Berryessa,2504,5662,1997,38,619,,Sold,,,http://www.redfin.com/CA/San-Jose/1580-Wharton-Rd-95132/home/935921,Bridge MLS,40892165,N,Y,37.4081364,-121.8493448
PAST SALE,February-27-2020,Townhouse,3326 Landess Ave Unit C,SAN JOSE,CA,95132,641500,2,1.5,SAN JOSE,976,902,1970,38,657,210,Sold,,,http://www.redfin.com/CA/San-Jose/3326-Landess-Ave-95132/unit-C/home/721210,MLSListings,ML81780534,N,Y,37.4198069,-121.8654673
PAST SALE,March-27-2020,Townhouse,1946 Tradan Dr,SAN JOSE,CA,95132,612000,2,2.0,SAN JOSE,966,5644,1987,9,634,375,Sold,,,http://www.redfin.com/CA/San-Jose/1946-Tradan-Dr-95132/home/1563315,MLSListings,ML81783412,N,Y,37.40076,-121.883915
PAST SALE,April-1-2020,Single Family Residential,1670 Old Piedmont Rd,SAN JOSE,CA,95132,1425000,3,2.0,SAN JOSE,1800,98030,1977,4,792,,Sold,,,http://www.redfin.com/CA/San-Jose/1670-Old-Piedmont-Rd-95132/home/574042,MLSListings,ML81783554,N,Y,37.4116329,-121.849834
PAST SALE,May-20-2019,Single Family Residential,2784 Longford Dr,SAN JOSE,CA,95132,1250000,4,2.5,SAN JOSE,1938,6328,1964,321,645,,Sold,,,http://www.redfin.com/CA/San-Jose/2784-Longford-Dr-95132/home/1639636,MLSListings,ML81745633,N,Y,37.3967597,-121.8661788
PAST SALE,June-21-2019,Single Family Residential,3398 Mira Vista Cir,SAN JOSE,CA,95132,1089000,4,2.0,SAN JOSE,1645,6570,1966,289,662,,Sold,,,http://www.redfin.com/CA/San-Jose/3398-Mira-Vista-Cir-95132/home/1433716,MLSListings,ML81751752,N,Y,37.3923725,-121.8396479
PAST SALE,,Single Family Residential,3554 El Grande Dr,San Jose,CA,95132,1100000,3,3.0,,2453,12585,1960,,448,,,,,http://www.redfin.com/CA/San-Jose/3554-El-Grande-Dr-95132/home/1781568,,,N,Y,37.3943714,-121.8322857
PAST SALE,August-14-2019,Single Family Residential,2652 Lucena Dr,SAN JOSE,CA,95132,1030000,3,2.0,SAN JOSE,1697,5949,1967,235,607,,Sold,,,http://www.redfin.com/CA/San-Jose/2652-Lucena-Dr-95132/home/1132494,MLSListings,ML81755181,N,Y,37.3965335,-121.8696254
PAST SALE,September-16-2019,Single Family Residential,2815 Sierra Rd,SAN JOSE,CA,95132,1035000,4,3.0,SAN JOSE,1305,6473,1972,202,793,,Sold,,,http://www.redfin.com/CA/San-Jose/2815-Sierra-Rd-95132/home/1459873,MLSListings,ML81762119,N,Y,37.3939315,-121.8606419
PAST SALE,November-19-2019,Single Family Residential,2574 Amaryl Dr,SAN JOSE,CA,95132,918000,4,2.0,SAN JOSE,1125,6004,1970,138,816,,Sold,,,http://www.redfin.com/CA/San-Jose/2574-Amaryl-Dr-95132/home/1406493,MLSListings,ML81772068,N,Y,37.3901592,-121.8608198
PAST SALE,December-24-2019,Single Family Residential,1041 Vista Oak,SAN JOSE,CA,95132,1250000,3,2.5,SAN JOSE,2230,11721,1964,103,561,,Sold,,,http://www.redfin.com/CA/San-Jose/1041-Vista-Oak-95132/home/775784,MLSListings,ML81775566,N,Y,37.3946165,-121.8346657
PAST SALE,December-20-2019,Single Family Residential,3972 Claitor Way,SAN JOSE,CA,95132,1121250,5,2.5,SAN JOSE,2418,14684,1975,107,464,,Sold,,,http://www.redfin.com/CA/San-Jose/3972-Claitor-Way-95132/home/1692665,MLSListings,ML81771316,N,Y,37.3991127,-121.8207188
PAST SALE,April-1-2020,Townhouse,1237 Sierra Village Pl,SAN JOSE,CA,95132,920000,2,2.5,SAN JOSE,1430,1762,1983,4,643,367,Sold,,,http://www.redfin.com/CA/San-Jose/1237-Sierra-Village-Pl-95132/home/1704723,MLSListings,ML81783127,N,Y,37.3936909,-121.8581556
PAST SALE,April-1-2020,Townhouse,2627 Heritage Park Cir,SAN JOSE,CA,95132,952000,2,2.5,SAN JOSE,1670,2089,1988,4,570,425,Sold,,,http://www.redfin.com/CA/San-Jose/2627-Heritage-Park-Cir-95132/home/1771030,MLSListings,ML81783682,N,Y,37.3946869,-121.8624439
PAST SALE,May-10-2019,Single Family Residential,2636 Mosswood Dr,SAN JOSE,CA,95132,1135000,3,2.0,SAN JOSE,1602,6110,1969,331,708,,Sold,,,http://www.redfin.com/CA/San-Jose/2636-Mosswood-Dr-95132/home/1218031,MLSListings,ML81747450,N,Y,37.3950653,-121.862999
PAST SALE,May-8-2019,Townhouse,2789 Sierra Village Ct,SAN JOSE,CA,95132,980000,3,2.5,SAN JOSE,1537,1549,1984,333,638,348,Sold,,,http://www.redfin.com/CA/San-Jose/2789-Sierra-Village-Ct-95132/home/638661,MLSListings,ML81743444,N,Y,37.393402,-121.857733
PAST SALE,October-25-2019,Vacant Land,841 Boulder Dr,SAN JOSE,CA,95132,269888,,,SAN JOSE,,20018,,163,,,Sold,,,http://www.redfin.com/CA/San-Jose/841-Boulder-Dr-95132/home/942286,MLSListings,ML81764057,N,Y,37.400228,-121.82334
PAST SALE,January-16-2020,Vacant Land,3968 Claitor Way,SAN JOSE,CA,95132,150000,,,SAN JOSE,,18094,,80,,,Sold,,,http://www.redfin.com/CA/San-Jose/3968-Claitor-Way-95132/home/161056641,MLSListings,ML81764227,N,Y,37.3988889,-121.820917
PAST SALE,March-12-2020,Vacant Land,,SAN JOSE,CA,95132,470000,,,SAN JOSE,,14255,,24,,,Sold,,,http://www.redfin.com/CA/SAN-JOSE/STEINBAUGH-CT-95132/home/160960386,MLSListings,ML81780344,N,Y,37.40136,-121.827406
PAST SALE,August-9-2019,Single Family Residential,3959 Mylinda Dr,SAN JOSE,CA,95132,1008000,4,3.0,SAN JOSE,2584,14046,1964,240,390,,Sold,,,http://www.redfin.com/CA/San-Jose/3959-Mylinda-Dr-95132/home/1719074,MLSListings,ML81754700,N,Y,37.4031066,-121.8228765
PAST SALE,May-20-2019,Townhouse,1904 Vinedale Sq,SAN JOSE,CA,95132,910000,4,2.5,SAN JOSE,1452,1628,1972,321,627,380,Sold,,,http://www.redfin.com/CA/San-Jose/1904-Vinedale-Sq-95132/home/934340,MLSListings,ML81745916,N,Y,37.4110125,-121.8606568
PAST SALE,,Condo/Co-op,3224 Cropley Ave,San Jose,CA,95132,2454000,4,3.0,,1452,,1976,,1690,,,,,http://www.redfin.com/CA/San-Jose/3224-Cropley-Ave-95132/home/1520262,,,N,Y,37.4115867,-121.8644866
PAST SALE,April-23-2019,Townhouse,3032 Ironside Ct,SAN JOSE,CA,95132,890000,4,2.5,SAN JOSE,1452,1694,1976,348,613,340,Sold,,,http://www.redfin.com/CA/San-Jose/3032-Ironside-Ct-95132/home/1794561,MLSListings,ML81736589,N,Y,37.4093406,-121.8633845
PAST SALE,June-25-2019,Townhouse,1932 Messina Dr,SAN JOSE,CA,95132,635100,2,1.0,SAN JOSE,968,704,1972,285,656,380,Sold,,,http://www.redfin.com/CA/San-Jose/1932-Messina-Dr-95132/home/1145491,MLSListings,ML81746925,N,Y,37.41116,-121.861899
PAST SALE,September-13-2019,Single Family Residential,1886 Wembley Ct,SAN JOSE,CA,95132,1190000,3,2.5,SAN JOSE,1579,4033,1986,205,754,130,Sold,,,http://www.redfin.com/CA/San-Jose/1886-Wembley-Ct-95132/home/864712,MLSListings,ML81762763,N,Y,37.409911,-121.8679769
PAST SALE,August-19-2019,Single Family Residential,2932 Cohansey Dr,SAN JOSE,CA,95132,1250000,4,2.0,SAN JOSE,2287,6366,1970,230,547,,Sold,,,http://www.redfin.com/CA/San-Jose/2932-Cohansey-Dr-95132/home/1650728,MLSListings,ML81757593,N,Y,37.4064251,-121.8715821
PAST SALE,June-10-2019,Single Family Residential,3505 Boysol Ct,SAN JOSE,CA,95132,1102000,3,2.0,SAN JOSE,1372,7196,1970,300,803,,Sold,,,http://www.redfin.com/CA/San-Jose/3505-Boysol-Ct-95132/home/573670,MLSListings,ML81749743,N,Y,37.4166642,-121.8601082
PAST SALE,June-19-2019,Single Family Residential,3460 Outlook Ct,SAN JOSE,CA,95132,1480000,3,3.0,SAN JOSE,2133,12096,1964,291,694,,Sold,,,http://www.redfin.com/CA/San-Jose/3460-Outlook-Ct-95132/home/1535300,MLSListings,ML81736621,N,Y,37.412565,-121.8467872
PAST SALE,May-31-2019,Single Family Residential,1203 Old Forge Ln,SAN JOSE,CA,95132,953000,3,2.0,SAN JOSE,1041,6000,1976,310,915,,Sold,,,http://www.redfin.com/CA/San-Jose/1203-Old-Forge-Ln-95132/home/1399149,MLSListings,ML81744592,N,Y,37.3874892,-121.8637106
PAST SALE,June-12-2019,Single Family Residential,1164 Sandstone Ln,SAN JOSE,CA,95132,1213800,3,2.0,SAN JOSE,1497,6062,1974,298,811,,Sold,,,http://www.redfin.com/CA/San-Jose/1164-Sandstone-Ln-95132/home/1270184,MLSListings,ML81749760,N,Y,37.3886191,-121.8594411
PAST SALE,November-20-2019,Townhouse,1308 Bernoulli Pl #6,SAN JOSE,CA,95132,930000,3,3.0,SAN JOSE,1584,1300,2014,137,587,210,Sold,,,http://www.redfin.com/CA/San-Jose/1308-Bernoulli-Pl-95132/unit-6/home/62323841,MLSListings,ML81770182,N,Y,37.3919822,-121.8652947
PAST SALE,December-4-2019,Single Family Residential,2618 Hostetter Rd,SAN JOSE,CA,95132,1110000,3,2.0,SAN JOSE,1712,11131,1972,123,648,,Sold,,,http://www.redfin.com/CA/San-Jose/2618-Hostetter-Rd-95132/home/1145536,MLSListings,ML81768424,N,Y,37.3966228,-121.8708928
PAST SALE,,Single Family Residential,2130 Warmwood Ln,San Jose,CA,95132,850000,5,3.0,,1632,5980,1964,,521,,,,,http://www.redfin.com/CA/San-Jose/2130-Warmwood-Ln-95132/home/892569,,,N,Y,37.4156547,-121.8713597
PAST SALE,February-12-2020,Townhouse,3150 Landess Ave Unit C,SAN JOSE,CA,95132,600000,2,1.5,SAN JOSE,976,850,1970,53,615,275,Sold,,,http://www.redfin.com/CA/San-Jose/3150-Landess-Ave-95132/unit-C/home/1135263,MLSListings,ML81779413,N,Y,37.4164885,-121.8729606
PAST SALE,February-14-2020,Single Family Residential,1836 Daltrey Way,SAN JOSE,CA,95132,1390000,4,3.0,SAN JOSE,2585,6000,1976,51,538,,Sold,,,http://www.redfin.com/CA/San-Jose/1836-Daltrey-Way-95132/home/937146,MLSListings,ML81779170,N,Y,37.4047929,-121.8725159
PAST SALE,March-18-2020,Single Family Residential,2658 Agua Vista Dr,SAN JOSE,CA,95132,1320000,4,2.5,SAN JOSE,1938,6101,1967,18,681,,Sold,,,http://www.redfin.com/CA/San-Jose/2658-Agua-Vista-Dr-95132/home/1639635,MLSListings,ML81782987,N,Y,37.3963654,-121.8685581
PAST SALE,March-19-2020,Single Family Residential,3128 Drywood Ln,SAN JOSE,CA,95132,1140000,4,2.0,SAN JOSE,1361,6087,1964,17,838,,Sold,,,http://www.redfin.com/CA/San-Jose/3128-Drywood-Ln-95132/home/1338255,MLSListings,ML81779966,N,Y,37.4155861,-121.8730273
PAST SALE,September-27-2019,Single Family Residential,2726 Kesey Ln,SAN JOSE,CA,95132,1410000,4,2.0,SAN JOSE,2082,6000,1976,191,677,,Sold,,,http://www.redfin.com/CA/San-Jose/2726-Kesey-Ln-95132/home/938096,MLSListings,ML81760501,N,Y,37.4019831,-121.8734943
PAST SALE,October-11-2019,Single Family Residential,2536 Amaryl Ct,SAN JOSE,CA,95132,850000,4,1.5,SAN JOSE,1125,6185,1970,177,756,,Sold,,,http://www.redfin.com/CA/San-Jose/2536-Amaryl-Ct-95132/home/1481556,MLSListings,ML81761434,N,Y,37.390033,-121.8622429
PAST SALE,October-23-2019,Single Family Residential,1948 Camargo Dr,SAN JOSE,CA,95132,970000,6,2.0,SAN JOSE,2352,6101,1970,165,412,,Sold,,,http://www.redfin.com/CA/San-Jose/1948-Camargo-Dr-95132/home/728026,MLSListings,ML81760346,N,Y,37.4083629,-121.8757622
PAST SALE,November-18-2019,Vacant Land,0 Sierra Rd,SAN JOSE,CA,95132,4625000,,,SAN JOSE,,26136000,,139,,,Sold,,,http://www.redfin.com/CA/San-Jose/Sierra-Rd-95132/home/1205471,MLSListings,ML81776011,N,Y,37.401322,-121.840094
PAST SALE,,Townhouse,1812 QUEEN VICTORIA,SAN JOSE,CA,95132,,4,3.0,,1474,,1970,,,,Sold,,,http://www.redfin.com/CA/San-Jose/1812-Queen-Victoria-Way-95132/home/935159,MLSListings,,N,Y,37.412831,-121.85184
PAST SALE,,Single Family Residential,1410 Danby Ave,San Jose,CA,95132,1760000,3,2.0,,1325,5980,1962,,1328,,,,,http://www.redfin.com/CA/San-Jose/1410-Danby-Ave-95132/home/1330667,,,N,Y,37.4012571,-121.8551269
PAST SALE,March-9-2020,Single Family Residential,2801 Lucena Dr,SAN JOSE,CA,95132,1175000,4,2.0,SAN JOSE,1478,6900,1965,27,795,,Sold,,,http://www.redfin.com/CA/San-Jose/2801-Lucena-Dr-95132/home/1692499,MLSListings,ML81781208,N,Y,37.3989356,-121.8670016
PAST SALE,April-22-2019,Single Family Residential,2416 Old Gate Ct,SAN JOSE,CA,95132,1040000,4,2.0,SAN JOSE,1694,8280,1976,349,614,,Sold,,,http://www.redfin.com/CA/San-Jose/2416-Old-Gate-Ct-95132/home/1322943,MLSListings,ML81739800,N,Y,37.3904479,-121.8662455
PAST SALE,April-16-2019,Single Family Residential,2466 Old Elm Ct,SAN JOSE,CA,95132,1053000,4,2.0,SAN JOSE,1234,6000,1976,355,853,,Sold,,,http://www.redfin.com/CA/San-Jose/2466-Old-Elm-Ct-95132/home/1501553,MLSListings,ML81744560,N,Y,37.3881227,-121.8653561
PAST SALE,,Single Family Residential,1396 Old Stone Way,San Jose,CA,95132,995000,3,2.0,,1577,6091,1977,,631,,,,,http://www.redfin.com/CA/San-Jose/1396-Old-Stone-Way-95132/home/1671459,,,N,Y,37.392496,-121.870626
PAST SALE,June-28-2019,Condo/Co-op,1315 Venturi Dr #3,SAN JOSE,CA,95132,850000,2,2.0,SAN JOSE,1464,598,2014,282,581,210,Sold,,,http://www.redfin.com/CA/San-Jose/1315-Venturi-Dr-95132/unit-3/home/63730971,MLSListings,ML81746922,N,Y,37.3920124,-121.8650176
PAST SALE,March-19-2020,Townhouse,3388 Landess Ave Unit D,SAN JOSE,CA,95132,672000,3,1.5,SAN JOSE,1130,901,1970,17,595,210,Sold,,,http://www.redfin.com/CA/San-Jose/3388-Landess-Ave-95132/unit-D/home/1177910,MLSListings,ML81782509,Y,Y,37.4213502,-121.8618872
PAST SALE,March-24-2020,Townhouse,2892 KINGSGATE Ct,SAN JOSE,CA,95132,693000,3,1.5,SAN JOSE,1121,1435,1972,12,618,220,Sold,,,http://www.redfin.com/CA/San-Jose/2892-Kingsgate-Ct-95132/home/1574256,MLSListings,ML81777710,N,Y,37.4126976,-121.8786723
PAST SALE,March-27-2020,Condo/Co-op,2028 Tradan Dr,SAN JOSE,CA,95132,600000,2,2.0,SAN JOSE,988,,1987,9,607,375,Sold,,,http://www.redfin.com/CA/San-Jose/2028-Tradan-Dr-95132/home/1114947,MLSListings,ML81781702,N,Y,37.401527,-121.883088
PAST SALE,,Single Family Residential,3290 Farthing Way,San Jose,CA,95132,850000,3,2.0,,1412,6560,1971,,602,,,,,http://www.redfin.com/CA/San-Jose/3290-Farthing-Way-95132/home/1480008,,,N,Y,37.41091908208323,-121.85597189999999
PAST SALE,January-21-2020,Single Family Residential,1365 Vance Dr,SAN JOSE,CA,95132,1258000,4,2.0,SAN JOSE,1675,6475,1974,75,751,,Sold,,,http://www.redfin.com/CA/San-Jose/1365-Vance-Dr-95132/home/1101193,MLSListings,ML81777675,N,Y,37.4033724,-121.845564
PAST SALE,March-19-2020,Single Family Residential,1006 Belford Dr,SAN JOSE,CA,95132,1250000,4,2.0,SAN JOSE,1580,7224,1970,17,791,,Sold,,,http://www.redfin.com/CA/San-Jose/1006-Belford-Dr-95132/home/1052803,MLSListings,ML81782297,N,Y,37.3847389,-121.8565946
PAST SALE,March-20-2020,Single Family Residential,3147 Hostetter Rd,SAN JOSE,CA,95132,1110000,4,2.0,SAN JOSE,1383,8551,1971,16,803,,Sold,,,http://www.redfin.com/CA/San-Jose/3147-Hostetter-Rd-95132/home/1110533,MLSListings,ML81783136,N,Y,37.4058025,-121.8585071
PAST SALE,March-9-2020,Single Family Residential,1243 Gehrig Ave,SAN JOSE,CA,95132,1260000,3,2.0,SAN JOSE,1460,6086,1962,27,863,,Sold,,,http://www.redfin.com/CA/San-Jose/1243-Gehrig-Ave-95132/home/1598858,MLSListings,ML81779447,N,Y,37.3953259,-121.8528586
PAST SALE,March-12-2020,Single Family Residential,4001 Claitor Way,SAN JOSE,CA,95132,1800000,5,4.0,SAN JOSE,3440,55625,1998,24,523,,Sold,,,http://www.redfin.com/CA/San-Jose/4001-Claitor-Way-95132/home/1187707,MLSListings,ML81782389,N,Y,37.3990128,-121.8186055
PAST SALE,September-27-2019,Single Family Residential,1053 Heatherfield Ln,SAN JOSE,CA,95132,1170000,3,2.0,SAN JOSE,1374,6200,1969,191,852,,Sold,,,http://www.redfin.com/CA/San-Jose/1053-Heatherfield-Ln-95132/home/1298353,MLSListings,ML81766632,N,Y,37.38713,-121.8552603
PAST SALE,August-8-2019,Single Family Residential,3953 Perie Ln,SAN JOSE,CA,95132,1135000,4,2.0,SAN JOSE,2028,14371,1967,241,560,,Sold,,,http://www.redfin.com/CA/San-Jose/3953-Perie-Ln-95132/home/1553963,MLSListings,ML81758749,N,Y,37.4040241,-121.8233882
PAST SALE,April-8-2019,Single Family Residential,1287 Sierra Ct,SAN JOSE,CA,95132,1099900,4,3.0,SAN JOSE,1530,5944,1973,363,719,,Sold,,,http://www.redfin.com/CA/San-Jose/1287-Sierra-Ct-95132/home/1780539,MLSListings,ML81741753,N,Y,37.3918032,-121.8633548
PAST SALE,June-7-2019,Single Family Residential,1212 Adams Dr,SAN JOSE,CA,95132,1066000,3,2.0,SAN JOSE,1460,6234,1962,303,730,,Sold,,,http://www.redfin.com/CA/San-Jose/1212-Adams-Dr-95132/home/1422139,MLSListings,ML81748822,N,Y,37.3946279,-121.8526806
PAST SALE,,Single Family Residential,1170 Keystone Ct,San Jose,CA,95132,1241500,4,3.0,,2360,6719,1974,,526,,,,,http://www.redfin.com/CA/San-Jose/1170-Keystone-Ct-95132/home/939379,,,N,Y,37.3896336,-121.8580623
PAST SALE,August-21-2019,Single Family Residential,1141 Summertree Ct,SAN JOSE,CA,95132,1230000,4,2.5,SAN JOSE,2124,6394,1975,228,579,,Sold,,,http://www.redfin.com/CA/San-Jose/1141-Summertree-Ct-95132/home/939182,MLSListings,ML81760315,N,Y,37.3897987,-121.8545042
PAST SALE,,Single Family Residential,1021 Heatherfield Ln,San Jose,CA,95132,1200000,4,2.0,,2043,6211,1969,,587,,,,,http://www.redfin.com/CA/San-Jose/1021-Heatherfield-Ln-95132/home/938559,,,N,Y,37.3859691,-121.8543708
PAST SALE,November-4-2019,Townhouse,2618 Sierra Village Ct,SAN JOSE,CA,95132,875000,3,2.5,SAN JOSE,1556,1762,1981,153,562,355,Sold,,,http://www.redfin.com/CA/San-Jose/2618-Sierra-Village-Ct-95132/home/573996,MLSListings,ML81770013,N,Y,37.39278,-121.857129
PAST SALE,December-3-2019,Single Family Residential,1039 Noble Ave,SAN JOSE,CA,95132,1075000,4,3.0,SAN JOSE,2554,11858,1972,124,421,,Sold,,,http://www.redfin.com/CA/San-Jose/1039-Noble-Ave-95132/home/941527,MLSListings,ML81775462,N,Y,37.3942458,-121.8357778
PAST SALE,May-2-2019,Single Family Residential,2070 Lockwood Dr,SAN JOSE,CA,95132,1350000,4,2.5,SAN JOSE,1713,5919,1969,339,788,,Sold,,,http://www.redfin.com/CA/San-Jose/2070-Lockwood-Dr-95132/home/1747609,MLSListings,ML81738861,N,Y,37.4159344,-121.8616648
PAST SALE,,Single Family Residential,1887 St Andrews Pl,San Jose,CA,95132,1180000,4,2.0,,1480,6749,1974,,797,,,,,http://www.redfin.com/CA/San-Jose/1887-St-Andrews-Pl-95132/home/936393,,,N,Y,37.407886,-121.8684024
PAST SALE,June-18-2019,Single Family Residential,1957 Grosvenor Dr,SAN JOSE,CA,95132,1200000,3,2.0,SAN JOSE,1372,6259,1975,292,875,,Sold,,,http://www.redfin.com/CA/San-Jose/1957-Grosvenor-Dr-95132/home/930576,MLSListings,ML81749221,N,Y,37.4129447,-121.8615536
PAST SALE,June-19-2019,Single Family Residential,3085 Melchester Dr,SAN JOSE,CA,95132,1051000,4,2.0,SAN JOSE,1480,6199,1974,291,710,,Sold,,,http://www.redfin.com/CA/San-Jose/3085-Melchester-Dr-95132/home/1262594,MLSListings,ML81752706,N,Y,37.4077794,-121.864689
PAST SALE,July-3-2019,Single Family Residential,3645 Bloomsbury Way,SAN JOSE,CA,95132,1200000,3,2.0,SAN JOSE,1372,7971,1976,277,875,,Sold,,,http://www.redfin.com/CA/San-Jose/3645-Bloomsbury-Way-95132/home/1363656,MLSListings,ML81751998,N,Y,37.4158409,-121.8538371
PAST SALE,July-31-2019,Townhouse,3314 Landess Ave Unit C,SAN JOSE,CA,95132,610000,2,1.5,SAN JOSE,976,866,1970,249,625,200,Sold,,,http://www.redfin.com/CA/San-Jose/3314-Landess-Ave-95132/unit-C/home/1682767,MLSListings,ML81756713,N,Y,37.4194662,-121.86629
PAST SALE,June-19-2019,Single Family Residential,1483 Stone Creek Dr,SAN JOSE,CA,95132,1080000,4,2.0,SAN JOSE,1574,6354,1963,291,686,,Sold,,,http://www.redfin.com/CA/San-Jose/1483-Stone-Creek-Dr-95132/home/668600,MLSListings,ML81745396,N,Y,37.4073557,-121.8523248
PAST SALE,August-30-2019,Townhouse,3014 Ironside Ct,SAN JOSE,CA,95132,710000,3,1.5,SAN JOSE,1240,1596,1976,219,573,340,Sold,,,http://www.redfin.com/CA/San-Jose/3014-Ironside-Ct-95132/home/1677859,MLSListings,ML81762014,N,Y,37.4093214,-121.864105
PAST SALE,September-10-2019,Condo/Co-op,1916 Scepter Ct,SAN JOSE,CA,95132,660000,3,1.5,SAN JOSE,1176,933,1970,208,561,235,Sold,,,http://www.redfin.com/CA/San-Jose/1916-Scepter-Ct-95132/home/921273,MLSListings,ML81760372,N,Y,37.415424,-121.852797
PAST SALE,October-4-2019,Townhouse,1918 Vinedale Sq #1918,SAN JOSE,CA,95132,775000,4,2.5,SAN JOSE,1452,1628,1972,184,534,380,Sold,,,http://www.redfin.com/CA/San-Jose/1918-Vinedale-Sq-95132/unit-1918/home/167108457,MLSListings,ML81757170,N,Y,37.411292,-121.860155
PAST SALE,November-8-2019,Single Family Residential,1857 Half Pence Way,SAN JOSE,CA,95132,1060000,3,2.0,SAN JOSE,1577,6283,1971,149,672,,Sold,,,http://www.redfin.com/CA/San-Jose/1857-Half-Pence-Way-95132/home/638561,MLSListings,ML81770975,N,Y,37.411256,-121.856728
PAST SALE,January-30-2020,Single Family Residential,1438 Old Piedmont Rd,SAN JOSE,CA,95132,1250000,3,2.0,SAN JOSE,1561,8480,1980,66,801,,Sold,,,http://www.redfin.com/CA/San-Jose/1438-Old-Piedmont-Rd-95132/home/1388103,MLSListings,ML81777093,N,Y,37.4070874,-121.8464536
PAST SALE,,Single Family Residential,2135 Corktree Ln,San Jose,CA,95132,1235000,4,2.0,,1825,6408,1965,,677,,,,,http://www.redfin.com/CA/San-Jose/2135-Corktree-Ln-95132/home/1826254,,,N,Y,37.4170605,-121.8664234
PAST SALE,May-15-2019,Single Family Residential,1704 Via Flores Ct,SAN JOSE,CA,95132,1330000,4,2.5,SAN JOSE,2265,5149,1999,326,587,,Sold,,,http://www.redfin.com/CA/San-Jose/1704-Via-Flores-95132/home/1091595,MLSListings,ML81744914,N,Y,37.4015235,-121.8780301
PAST SALE,May-6-2019,Single Family Residential,2955 Camargo Ct,SAN JOSE,CA,95132,1242000,4,2.0,SAN JOSE,1697,6024,1969,335,732,,Sold,,,http://www.redfin.com/CA/San-Jose/2955-Camargo-Ct-95132/home/1570914,MLSListings,ML81744261,N,Y,37.40732,-121.8726049
PAST SALE,February-20-2020,Condo/Co-op,1984 Tradan Dr,SAN JOSE,CA,95132,460000,1,1.0,SAN JOSE,712,,1987,45,646,375,Sold,,,http://www.redfin.com/CA/San-Jose/1984-Tradan-Dr-95132/home/1199649,MLSListings,ML81779250,N,Y,37.401325,-121.883289
PAST SALE,June-10-2019,Single Family Residential,3180 Mattos Ave,SAN JOSE,CA,95132,1100000,3,2.0,SAN JOSE,1224,6177,1963,300,899,,Sold,,,http://www.redfin.com/CA/San-Jose/3180-Mattos-Ave-95132/home/936190,MLSListings,ML81748903,N,Y,37.4028591,-121.8537926
PAST SALE,,Single Family Residential,1358 N Capitol Ave,San Jose,CA,95132,800000,4,3.0,,1821,7553,1974,,439,,,,,http://www.redfin.com/CA/San-Jose/1358-N-Capitol-Ave-95132/home/1520036,,,N,Y,37.39307,-121.8666458
PAST SALE,April-24-2019,Townhouse,2780 Sierra Village Ct,SAN JOSE,CA,95132,1092000,3,2.5,SAN JOSE,1556,1832,1983,347,702,348,Sold,,,http://www.redfin.com/CA/San-Jose/2780-Sierra-Village-Ct-95132/home/638664,MLSListings,ML81742264,N,Y,37.393121,-121.857374
PAST SALE,July-31-2019,Single Family Residential,1681 Queens Crossing Dr,SAN JOSE,CA,95132,1280000,4,2.0,SAN JOSE,1806,6105,1972,249,709,,Sold,,,http://www.redfin.com/CA/San-Jose/1681-Queens-Crossing-Dr-95132/home/1688040,MLSListings,ML81757764,N,Y,37.4037274,-121.8624208
PAST SALE,July-30-2019,Single Family Residential,1135 Hilford Ct,SAN JOSE,CA,95132,1280000,4,2.5,SAN JOSE,2090,6655,1973,250,612,,Sold,,,http://www.redfin.com/CA/San-Jose/1135-Hilford-Ct-95132/home/796198,MLSListings,ML81757347,N,Y,37.3955092,-121.8462312
PAST SALE,July-9-2019,Single Family Residential,1808 Camargo Dr,SAN JOSE,CA,95132,1210005,3,2.0,SAN JOSE,1365,6405,1971,271,886,,Sold,,,http://www.redfin.com/CA/San-Jose/1808-Camargo-Dr-95132/home/1159699,MLSListings,ML81750020,N,Y,37.4049318,-121.8704258
PAST SALE,October-22-2019,Condo/Co-op,2664 Somerset Park Cir,SAN JOSE,CA,95132,459000,1,1.0,SAN JOSE,677,784,1988,166,678,330,Sold,,,http://www.redfin.com/CA/San-Jose/2664-Somerset-Park-Cir-95132/home/2124811,MLSListings,ML81766356,N,Y,37.39484,-121.861834
PAST SALE,December-5-2019,Single Family Residential,3418 Suncrest Ave,SAN JOSE,CA,95132,1025000,3,3.0,SAN JOSE,2008,7199,1961,122,510,,Sold,,,http://www.redfin.com/CA/San-Jose/3418-Suncrest-Ave-95132/home/941114,MLSListings,ML81765731,N,Y,37.3976104,-121.8408489
PAST SALE,January-17-2020,Single Family Residential,2456 Amaryl Dr,SAN JOSE,CA,95132,1350000,5,3.0,SAN JOSE,2358,5765,1997,79,573,,Sold,,,http://www.redfin.com/CA/San-Jose/2456-Amaryl-Dr-95132/home/937383,MLSListings,ML81776657,N,Y,37.3916492,-121.8642443
PAST SALE,,Single Family Residential,1664 Locksley Park Dr,San Jose,CA,95132,1060000,3,2.0,,1372,6301,1972,,773,,,,,http://www.redfin.com/CA/San-Jose/1664-Locksley-Park-Dr-95132/home/654196,,,N,Y,37.4056316,-121.8589518
PAST SALE,November-26-2019,Single Family Residential,1356 Old Rose Pl,SAN JOSE,CA,95132,865000,3,2.0,SAN JOSE,1041,6183,1976,131,831,,Sold,,,http://www.redfin.com/CA/San-Jose/1356-Old-Rose-Pl-95132/home/1166159,MLSListings,ML81766377,N,Y,37.3917905,-121.8664345
PAST SALE,July-30-2019,Condo/Co-op,2423 Stearman Ln #5,SAN JOSE,CA,95132,850500,2,2.0,SAN JOSE,1464,766,2013,250,581,221,Sold,,,http://www.redfin.com/CA/San-Jose/2423-Stearman-Ln-95132/unit-5/home/95955765,MLSListings,ML81757533,N,Y,37.3928086,-121.865751
PAST SALE,February-21-2020,Vacant Land,0 Mylinda Dr,SAN JOSE,CA,95132,300000,,,SAN JOSE,,48205,,44,,,Sold,,,http://www.redfin.com/CA/SAN-JOSE/MYLINDA-DR-95132/home/161075326,MLSListings,ML81759321,N,Y,37.403112,-121.820003
PAST SALE,May-31-2019,Condo/Co-op,1988 Tradan Dr,SAN JOSE,CA,95132,450000,1,1.0,SAN JOSE,712,4913,1987,310,632,375,Sold,,,http://www.redfin.com/CA/San-Jose/1988-Tradan-Dr-95132/home/1723595,MLSListings,ML81741540,N,Y,37.401325,-121.883289
PAST SALE,May-6-2019,Single Family Residential,1742 Trudean Way,SAN JOSE,CA,95132,1506000,4,3.0,SAN JOSE,2467,6237,1976,335,610,,Sold,,,http://www.redfin.com/CA/San-Jose/1742-Trudean-Way-95132/home/1570063,MLSListings,ML81744929,N,Y,37.4026338,-121.8694475
PAST SALE,April-25-2019,Single Family Residential,1234 Old Manor Pl,SAN JOSE,CA,95132,899000,3,2.0,SAN JOSE,1041,6000,1976,346,864,,Sold,,,http://www.redfin.com/CA/San-Jose/1234-Old-Manor-Pl-95132/home/1162440,MLSListings,ML81736174,N,Y,37.387796,-121.864625
PAST SALE,May-17-2019,Single Family Residential,1919 Conifer Ln,SAN JOSE,CA,95132,1605000,4,3.0,SAN JOSE,2595,6438,1969,324,618,,Sold,,,http://www.redfin.com/CA/San-Jose/1919-Conifer-Ln-95132/home/572516,MLSListings,ML81745311,N,Y,37.4133779,-121.8631769
PAST SALE,April-26-2019,Single Family Residential,3131 Kermath Dr,SAN JOSE,CA,95132,1110006,3,2.0,SAN JOSE,1571,6090,1970,345,707,,Sold,,,http://www.redfin.com/CA/San-Jose/3131-Kermath-Dr-95132/home/606308,MLSListings,ML81739200,N,Y,37.4128972,-121.8695364
PAST SALE,May-21-2019,Single Family Residential,2633 Agua Vista Dr,San Jose,CA,95132,951000,3,2.0,Berryessa,1260,6200,1967,320,755,,Sold,,,http://www.redfin.com/CA/San-Jose/2633-Agua-Vista-Dr-95132/home/1606211,Bridge MLS,40860447,N,Y,37.3963506,-121.8693585
PAST SALE,June-24-2019,Single Family Residential,3562 Rowley Dr,SAN JOSE,CA,95132,1172000,3,2.0,SAN JOSE,1577,6300,1970,286,743,,Sold,,,http://www.redfin.com/CA/San-Jose/3562-Rowley-Dr-95132/home/1574202,MLSListings,ML81751337,N,Y,37.4184677,-121.8607308
PAST SALE,June-21-2019,Single Family Residential,2692 Camino Del Rey,SAN JOSE,CA,95132,1038000,4,2.0,SAN JOSE,1480,6255,1977,289,701,,Sold,,,http://www.redfin.com/CA/San-Jose/2692-Camino-Del-Rey-95132/home/822937,MLSListings,ML81750430,N,Y,37.3942036,-121.8690028
PAST SALE,July-15-2019,Single Family Residential,2960 Cohansey Dr,SAN JOSE,CA,95132,1140000,3,2.0,SAN JOSE,1269,6970,1970,265,898,,Sold,,,http://www.redfin.com/CA/San-Jose/2960-Cohansey-Dr-95132/home/1155240,MLSListings,ML81756175,N,Y,37.4067137,-121.8708706
PAST SALE,July-19-2019,Single Family Residential,1252 Piedmont Rd,SAN JOSE,CA,95132,1040000,3,2.0,SAN JOSE,1402,9792,1959,261,742,,Sold,,,http://www.redfin.com/CA/San-Jose/1252-Piedmont-Rd-95132/home/1302570,MLSListings,ML81756768,N,Y,37.39842,-121.8459198
PAST SALE,July-18-2019,Single Family Residential,1960 Camargo Dr,SAN JOSE,CA,95132,1275000,4,2.0,SAN JOSE,1918,6939,1970,262,665,,Sold,,,http://www.redfin.com/CA/San-Jose/1960-Camargo-Dr-95132/home/570560,MLSListings,ML81756437,N,Y,37.4084899,-121.8763403
PAST SALE,July-25-2019,Condo/Co-op,2409 Venturi Pl #10,SAN JOSE,CA,95132,949000,3,2.5,SAN JOSE,1605,566,2014,255,591,210,Sold,,,http://www.redfin.com/CA/San-Jose/2409-Venturi-Pl-95132/unit-10/home/95957384,MLSListings,ML81756438,N,Y,37.3925226,-121.8651721
PAST SALE,August-1-2019,Single Family Residential,3586 El Grande Dr,San Jose,CA,95132,1282000,4,3.0,East Foothills,2143,13597,1965,248,598,,Sold,,,http://www.redfin.com/CA/San-Jose/3586-El-Grande-Dr-95132/home/1490942,Bridge MLS,40867836,N,Y,37.3947178,-121.8311291
PAST SALE,August-15-2019,Single Family Residential,1362 Turlock Ln,SAN JOSE,CA,95132,1200000,3,2.0,SAN JOSE,1320,6120,1969,234,909,,Sold,,,http://www.redfin.com/CA/San-Jose/1362-Turlock-Ln-95132/home/1422097,MLSListings,ML81759314,N,Y,37.3994917,-121.8551269
PAST SALE,,Single Family Residential,3210 VICTOR Ct,SAN JOSE,CA,95132,,3,2.0,,1211,5992,1971,,,,Sold,,,http://www.redfin.com/CA/San-Jose/3210-Victor-Ct-95132/home/833949,MLSListings,,N,Y,37.406647,-121.8581957
PAST SALE,September-5-2019,Single Family Residential,1825 Camargo Dr,SAN JOSE,CA,95132,999990,2,2.0,SAN JOSE,1355,6273,1970,213,738,,Sold,,,http://www.redfin.com/CA/San-Jose/1825-Camargo-Dr-95132/home/1069544,MLSListings,ML81760113,N,Y,37.4052391,-121.8714042
PAST SALE,September-6-2019,Single Family Residential,3976 Perie Ln,SAN JOSE,CA,95132,1790000,4,3.0,SAN JOSE,3730,14715,1997,212,480,,Sold,,,http://www.redfin.com/CA/San-Jose/3976-Perie-Ln-95132/home/1730512,MLSListings,ML81758615,N,Y,37.4033501,-121.8225651
PAST SALE,September-17-2019,Single Family Residential,2073 Morrill Ave,SAN JOSE,CA,95132,880000,4,2.0,SAN JOSE,1361,5953,1964,201,647,19,Sold,,,http://www.redfin.com/CA/San-Jose/2073-Morrill-Ave-95132/home/569757,MLSListings,ML81760788,N,Y,37.4127369,-121.8734498
PAST SALE,October-17-2019,Single Family Residential,2656 Camino Del Rey,SAN JOSE,CA,95132,998000,3,2.0,SAN JOSE,1372,6195,1977,171,727,,Sold,,,http://www.redfin.com/CA/San-Jose/2656-Camino-Del-Rey-95132/home/1025281,MLSListings,ML81760065,N,Y,37.3933152,-121.8703369
PAST SALE,November-15-2019,Single Family Residential,1901 Junewood Ave,SAN JOSE,CA,95132,865000,5,2.5,SAN JOSE,2002,7353,1969,142,432,,Sold,,,http://www.redfin.com/CA/San-Jose/1901-Junewood-Ave-95132/home/1820890,MLSListings,ML81771818,N,Y,37.4084298,-121.8721602
PAST SALE,November-26-2019,Single Family Residential,3264 Woody Ln,SAN JOSE,CA,95132,1155000,4,2.0,SAN JOSE,1585,6705,1964,131,729,,Sold,,,http://www.redfin.com/CA/San-Jose/3264-Woody-Ln-95132/home/572535,MLSListings,ML81771018,N,Y,37.4130459,-121.8635327
PAST SALE,,Single Family Residential,1190 Piedmont Rd,San Jose,CA,95132,1125000,4,3.0,,1853,8474,1959,,607,,,,,http://www.redfin.com/CA/San-Jose/1190-Piedmont-Rd-95132/home/851797,,,N,Y,37.3971039,-121.8452971
PAST SALE,,Single Family Residential,3126 Drywood Ln,San Jose,CA,95132,800000,3,2.0,,1165,5822,1964,,687,,,,,http://www.redfin.com/CA/San-Jose/3126-Drywood-Ln-95132/home/966753,,,N,Y,37.4154831,-121.873183
PAST SALE,January-24-2020,Single Family Residential,3313 Half Pence Ct,SAN JOSE,CA,95132,1125000,4,2.0,SAN JOSE,1598,8166,1971,72,704,,Sold,,,http://www.redfin.com/CA/San-Jose/3313-Half-Pence-Ct-95132/home/1718880,MLSListings,ML81774774,N,Y,37.4120267,-121.8556606
PAST SALE,,Single Family Residential,2075 Lockwood Dr,San Jose,CA,95132,1168000,4,3.0,,1713,6000,1969,,682,,,,,http://www.redfin.com/CA/San-Jose/2075-Lockwood-Dr-95132/home/1770624,,,N,Y,37.4154971,-121.8616203
PAST SALE,March-20-2020,Townhouse,2604 Sierra Village Ct,SAN JOSE,CA,95132,950000,3,2.5,SAN JOSE,1556,1877,1981,16,611,348,Sold,,,http://www.redfin.com/CA/San-Jose/2604-Sierra-Village-Ct-95132/home/1556972,MLSListings,ML81780432,N,Y,37.3926251,-121.8578726
PAST SALE,,Single Family Residential,1057 Terra Noble Way,San Jose,CA,95132,900000,4,2.0,,2055,7132,1970,,438,,,,,http://www.redfin.com/CA/San-Jose/1057-Terra-Noble-Way-95132/home/942270,,,N,Y,37.3947792,-121.837446
PAST SALE,July-5-2019,Single Family Residential,2976 Lugano Way,SAN JOSE,CA,95132,1210000,3,2.0,SAN JOSE,1513,6962,1970,275,800,,Sold,,,http://www.redfin.com/CA/San-Jose/2976-Lugano-Way-95132/home/1497460,MLSListings,ML81750828,N,Y,37.3926587,-121.8528586
PAST SALE,September-6-2019,Single Family Residential,1804 Bethany Ave,SAN JOSE,CA,95132,1100000,4,2.0,SAN JOSE,1750,5899,1976,212,629,,Sold,,,http://www.redfin.com/CA/San-Jose/1804-Bethany-Ave-95132/home/1270136,MLSListings,ML81760083,N,Y,37.402076,-121.8745615
PAST SALE,June-29-2019,Single Family Residential,1502 Old Piedmont Rd,SAN JOSE,CA,95132,1125000,3,3.0,SAN JOSE,1928,6599,1961,281,584,,Sold,,,http://www.redfin.com/CA/San-Jose/1502-Old-Piedmont-Rd-95132/home/1433703,MLSListings,ML81746878,N,Y,37.4087703,-121.8468539
PAST SALE,June-4-2019,Single Family Residential,2660 Alderwood Dr,SAN JOSE,CA,95132,1100000,4,2.0,SAN JOSE,1361,6109,1964,306,808,,Sold,,,http://www.redfin.com/CA/San-Jose/2660-Alderwood-Dr-95132/home/1590287,MLSListings,ML81748800,N,Y,37.406791,-121.8828769
PAST SALE,,Single Family Residential,2611 Poplarwood Way,San Jose,CA,95132,1255000,3,3.0,,2205,6218,1964,,569,,,,,http://www.redfin.com/CA/San-Jose/2611-Poplarwood-Way-95132/home/1077347,,,N,Y,37.4077284,-121.8856338
PAST SALE,May-17-2019,Single Family Residential,3143 Kermath Dr,SAN JOSE,CA,95132,1150000,4,2.0,SAN JOSE,1598,6104,1970,324,720,,Sold,,,http://www.redfin.com/CA/San-Jose/3143-Kermath-Dr-95132/home/1102903,MLSListings,ML81745305,N,Y,37.4132609,-121.8688249
PAST SALE,April-9-2019,Single Family Residential,3227 Mattos Ave,SAN JOSE,CA,95132,1100000,3,2.0,SAN JOSE,1248,6042,1963,362,881,,Sold,,,http://www.redfin.com/CA/San-Jose/3227-Mattos-Ave-95132/home/696939,MLSListings,ML81739004,N,Y,37.4038661,-121.8528141
PAST SALE,July-1-2019,Single Family Residential,1481 Stubbins Way,SAN JOSE,CA,95132,1250000,4,2.0,SAN JOSE,1598,6300,1973,279,782,,Sold,,,http://www.redfin.com/CA/San-Jose/1481-Stubbins-Way-95132/home/1370389,MLSListings,ML81754108,N,Y,37.3998604,-121.8602861
PAST SALE,July-9-2019,Single Family Residential,3430 Cardoza Ct,SAN JOSE,CA,95132,1349000,3,2.0,SAN JOSE,1505,11545,1973,271,896,,Sold,,,http://www.redfin.com/CA/San-Jose/3430-Cardoza-Ct-95132/home/1336894,MLSListings,ML81754912,N,Y,37.4104369,-121.8508793
PAST SALE,July-17-2019,Single Family Residential,3378 Copper Leaf Dr,SAN JOSE,CA,95132,1148888,4,2.5,SAN JOSE,1835,3252,1988,263,626,57,Sold,,,http://www.redfin.com/CA/San-Jose/3378-Copper-Leaf-Dr-95132/home/1636432,MLSListings,ML81746869,N,Y,37.4032609,-121.8461867
PAST SALE,,Single Family Residential,2741 Camino Del Rey,San Jose,CA,95132,1350000,5,3.5,,2653,6495,1999,,509,,,,,http://www.redfin.com/CA/San-Jose/2741-Camino-Del-Rey-95132/home/1626631,,,N,Y,37.3959925,-121.867046
PAST SALE,,Single Family Residential,1435 Mardan Dr,San Jose,CA,95132,900000,3,2.0,,1080,6321,1971,,833,,,,,http://www.redfin.com/CA/San-Jose/1435-Mardan-Dr-95132/home/1648441,,,N,Y,37.4046802,-121.8534812
PAST SALE,June-11-2019,Single Family Residential,2144 Sierra Wood Dr,SAN JOSE,CA,95132,950000,5,2.5,SAN JOSE,1688,6469,1963,299,563,,Sold,,,http://www.redfin.com/CA/San-Jose/2144-Sierra-Wood-Dr-95132/home/854167,MLSListings,ML81749143,N,Y,37.411084,-121.880209
PAST SALE,June-17-2019,Single Family Residential,3005 Via Montez,SAN JOSE,CA,95132,1210000,4,2.0,SAN JOSE,1579,8051,1969,293,766,,Sold,,,http://www.redfin.com/CA/San-Jose/3005-Via-Montez-95132/home/1391183,MLSListings,ML81748419,N,Y,37.4093582,-121.8740724
PAST SALE,,Single Family Residential,1932 Camargo Dr,San Jose,CA,95132,900000,4,2.0,,1806,6301,1970,,498,,,,,http://www.redfin.com/CA/San-Jose/1932-Camargo-Dr-95132/home/1682703,,,N,Y,37.4082276,-121.8749618
PAST SALE,July-29-2019,Multi-Family (2-4 Unit),3284 Rockport Ave,SAN JOSE,CA,95132,1250000,5,,SAN JOSE,2314,6925,1978,251,540,,Sold,,,http://www.redfin.com/CA/San-Jose/3284-Rockport-Ave-95132/home/1504025,MLSListings,ML81750108,N,Y,37.3973075,-121.8464981
PAST SALE,May-14-2019,Single Family Residential,3468 Madrid Dr,SAN JOSE,CA,95132,1005755,4,2.0,SAN JOSE,1610,6037,1969,327,625,,Sold,,,http://www.redfin.com/CA/San-Jose/3468-Madrid-Dr-95132/home/1482227,MLSListings,ML81743165,N,Y,37.4186834,-121.8639552
PAST SALE,April-17-2019,Single Family Residential,1653 Old Piedmont Rd,SAN JOSE,CA,95132,1060000,2,1.0,SAN JOSE,1485,16802,1946,354,714,,Sold,,,http://www.redfin.com/CA/San-Jose/1653-Old-Piedmont-Rd-95132/home/934914,MLSListings,ML81739849,N,Y,37.4103172,-121.8492113
PAST SALE,May-30-2019,Single Family Residential,1534 Stone Creek Dr,SAN JOSE,CA,95132,1260000,4,2.0,SAN JOSE,1778,9244,1972,311,709,,Sold,,,http://www.redfin.com/CA/San-Jose/1534-Stone-Creek-Dr-95132/home/805356,MLSListings,ML81746313,N,Y,37.4092347,-121.8529475
PAST SALE,June-20-2019,Condo/Co-op,3440 Cunard Ct,SAN JOSE,CA,95132,600000,2,1.0,SAN JOSE,884,1195,1971,290,679,230,Sold,,,http://www.redfin.com/CA/San-Jose/3440-Cunard-Ct-95132/home/1239189,MLSListings,ML81745705,N,Y,37.413763,-121.853453
PAST SALE,July-3-2019,Single Family Residential,3617 Rowley Dr,SAN JOSE,CA,95132,1100000,3,2.0,SAN JOSE,1412,6511,1970,277,779,,Sold,,,http://www.redfin.com/CA/San-Jose/3617-Rowley-Dr-95132/home/573776,MLSListings,ML81745810,N,Y,37.4198783,-121.8589074
PAST SALE,July-3-2019,Single Family Residential,3034 Balmoral Dr,SAN JOSE,CA,95132,1325000,4,2.0,SAN JOSE,1806,6300,1972,277,734,,Sold,,,http://www.redfin.com/CA/San-Jose/3034-Balmoral-Dr-95132/home/1155190,MLSListings,ML81753893,N,Y,37.4059668,-121.8652227
PAST SALE,July-3-2019,Single Family Residential,2667 Autumnvale Dr,SAN JOSE,CA,95132,925000,3,2.5,SAN JOSE,1248,3964,1973,277,741,15,Sold,,,http://www.redfin.com/CA/San-Jose/2667-Autumnvale-Dr-95132/home/1407278,MLSListings,ML81753393,N,Y,37.40661,-121.882536
PAST SALE,July-18-2019,Single Family Residential,3030 Balmoral Dr,SAN JOSE,CA,95132,1265000,5,2.0,SAN JOSE,1723,6789,1973,262,734,,Sold,,,http://www.redfin.com/CA/San-Jose/3030-Balmoral-Dr-95132/home/1704635,MLSListings,ML81755727,N,Y,37.4058274,-121.8653116
PAST SALE,July-31-2019,Single Family Residential,1468 Japaul Ln,SAN JOSE,CA,95132,1050000,3,2.0,SAN JOSE,1277,6154,1969,249,822,,Sold,,,http://www.redfin.com/CA/San-Jose/1468-Japaul-Ln-95132/home/1744021,MLSListings,ML81757556,N,Y,37.4056348,-121.8546821
PAST SALE,August-28-2019,Single Family Residential,2880 Bellini Ct,SAN JOSE,CA,95132,1000000,4,2.0,SAN JOSE,1132,6153,1970,221,883,,Sold,,,http://www.redfin.com/CA/San-Jose/2880-Bellini-Ct-95132/home/1713053,MLSListings,ML81760741,N,Y,37.3982793,-121.8597969
PAST SALE,September-5-2019,Single Family Residential,3275 Sagewood Ln,SAN JOSE,CA,95132,1140000,4,2.0,SAN JOSE,1397,6002,1967,213,816,,Sold,,,http://www.redfin.com/CA/San-Jose/3275-Sagewood-Ln-95132/home/1465162,MLSListings,ML81761891,N,Y,37.4140895,-121.8653116
PAST SALE,October-18-2019,Single Family Residential,3196 Shriver Dr,SAN JOSE,CA,95132,1580000,6,4.5,SAN JOSE,3384,8290,1972,170,467,,Sold,,,http://www.redfin.com/CA/San-Jose/3196-Shriver-Dr-95132/home/805470,MLSListings,ML81766517,N,Y,37.3950208,-121.8489889
PAST SALE,November-25-2019,Single Family Residential,2822 Monte Cresta Way,SAN JOSE,CA,95132,1040000,3,2.5,SAN JOSE,1938,9362,1965,132,537,,Sold,,,http://www.redfin.com/CA/San-Jose/2822-Monte-Cresta-Way-95132/home/938301,MLSListings,ML81759342,N,Y,37.3976796,-121.8651782
PAST SALE,December-6-2019,Single Family Residential,3231 Cropley Ave,SAN JOSE,CA,95132,1050000,3,2.5,SAN JOSE,1629,6107,1969,121,645,,Sold,,,http://www.redfin.com/CA/San-Jose/3231-Cropley-Ave-95132/home/1588116,MLSListings,ML81771777,N,Y,37.4121466,-121.8647779
PAST SALE,December-19-2019,Single Family Residential,3127 Drywood Ln,SAN JOSE,CA,95132,900000,3,2.0,SAN JOSE,1165,5805,1964,108,773,,Sold,,,http://www.redfin.com/CA/San-Jose/3127-Drywood-Ln-95132/home/1221544,MLSListings,ML81771551,N,Y,37.4159045,-121.8734053
PAST SALE,February-21-2020,Condo/Co-op,3559 Ivalynn Ct,SAN JOSE,CA,95132,486000,1,1.0,SAN JOSE,709,,1986,44,685,340,Sold,,,http://www.redfin.com/CA/San-Jose/3559-Ivalynn-Ct-95132/home/1553397,MLSListings,ML81779169,N,Y,37.401772,-121.845787
PAST SALE,March-18-2020,Single Family Residential,1501 Japaul Ln,SAN JOSE,CA,95132,1170000,3,2.0,SAN JOSE,1283,6731,1971,18,912,,Sold,,,http://www.redfin.com/CA/San-Jose/1501-Japaul-Ln-95132/home/935306,MLSListings,ML81782994,Y,Y,37.4070302,-121.8564167
PAST SALE,March-20-2020,Single Family Residential,3260 Clovewood Ln,SAN JOSE,CA,95132,1200000,3,2.0,SAN JOSE,1433,6056,1986,16,837,32,Sold,,,http://www.redfin.com/CA/San-Jose/3260-Clovewood-Ln-95132/home/1746238,MLSListings,ML81784004,N,Y,37.4156445,-121.8665124
PAST SALE,March-27-2020,Single Family Residential,3504 Pine Creek Dr,SAN JOSE,CA,95132,1100000,4,2.0,SAN JOSE,1457,8805,1973,9,755,,Sold,,,http://www.redfin.com/CA/San-Jose/3504-Pine-Creek-Dr-95132/home/1298227,MLSListings,ML81783067,N,Y,37.410213,-121.8494337
PAST SALE,July-9-2019,Single Family Residential,1895 Gillian Way,SAN JOSE,CA,95132,1070001,3,2.0,SAN JOSE,1320,6819,1973,271,811,,Sold,,,http://www.redfin.com/CA/San-Jose/1895-Gillian-Way-95132/home/1242179,MLSListings,ML81756495,N,Y,37.4061938,-121.874606
PAST SALE,April-18-2019,Single Family Residential,3903 Sophist Dr,SAN JOSE,CA,95132,1400000,4,2.5,SAN JOSE,2418,13870,1965,353,579,,Sold,,,http://www.redfin.com/CA/San-Jose/3903-Sophist-Dr-95132/home/1029871,MLSListings,ML81735385,N,Y,37.4021543,-121.8243002
PAST SALE,June-27-2019,Single Family Residential,2991 Hostetter Rd,SAN JOSE,CA,95132,1188000,4,2.0,SAN JOSE,1598,6879,1972,283,743,,Sold,,,http://www.redfin.com/CA/San-Jose/2991-Hostetter-Rd-95132/home/1713064,MLSListings,ML81746789,N,Y,37.4024637,-121.8623764
PAST SALE,August-15-2019,Single Family Residential,3268 Parkhaven Dr,SAN JOSE,CA,95132,1228000,4,2.0,SAN JOSE,1598,6519,1975,234,768,,Sold,,,http://www.redfin.com/CA/San-Jose/3268-Parkhaven-Dr-95132/home/1289095,MLSListings,ML81760094,N,Y,37.4118064,-121.8601527
PAST SALE,August-22-2019,Single Family Residential,2695 Autumnvale Dr,SAN JOSE,CA,95132,755000,2,1.0,SAN JOSE,937,7017,1973,227,806,15,Sold,,,http://www.redfin.com/CA/San-Jose/2695-Autumnvale-Dr-95132/home/1715593,MLSListings,ML81758737,N,Y,37.4067859,-121.881612
PAST SALE,November-27-2019,Townhouse,1927 Vinedale Sq,SAN JOSE,CA,95132,659000,2,1.5,SAN JOSE,1160,1480,1972,130,568,380,Sold,,,http://www.redfin.com/CA/San-Jose/1927-Vinedale-Sq-95132/home/717759,MLSListings,ML81773109,N,Y,37.4113696,-121.8608862
PAST SALE,March-27-2020,Condo/Co-op,1968 Tradan Dr,San Jose,CA,95132,470000,1,1.0,Santa Clara County,906,4979,1987,9,519,375,Sold,,,http://www.redfin.com/CA/San-Jose/1968-Tradan-Dr-95132/home/1577077,BAREIS,21924305,N,Y,37.401161,-121.88346
PAST SALE,October-18-2019,Single Family Residential,2173 BRISTOLWOOD Ln,SAN JOSE,CA,95132,1055000,3,2.0,SAN JOSE,1300,6099,1964,170,812,,Sold,,,http://www.redfin.com/CA/San-Jose/2173-Bristolwood-Ln-95132/home/741202,MLSListings,ML81768150,N,Y,37.4169083,-121.8685581
PAST SALE,November-26-2019,Single Family Residential,1181 Sandstone Ln,SAN JOSE,CA,95132,1170000,4,2.0,SAN JOSE,1994,6190,1974,131,587,,Sold,,,http://www.redfin.com/CA/San-Jose/1181-Sandstone-Ln-95132/home/1442854,MLSListings,ML81766364,N,Y,37.3887269,-121.8603973
PAST SALE,January-6-2020,Single Family Residential,2541 Amaryl Dr,SAN JOSE,CA,95132,780000,4,1.0,SAN JOSE,1260,5988,1972,90,619,,Sold,,,http://www.redfin.com/CA/San-Jose/2541-Amaryl-Dr-95132/home/1442814,MLSListings,ML81776017,N,Y,37.3898367,-121.8620206
PAST SALE,,Single Family Residential,1241 Lodestone Dr,San Jose,CA,95132,855000,4,2.0,,1125,6118,1970,,760,,,,,http://www.redfin.com/CA/San-Jose/1241-Lodestone-Dr-95132/home/1205426,,,N,Y,37.3910534,-121.86122
PAST SALE,May-31-2019,Single Family Residential,2668 Carlo Scimeca Dr,SAN JOSE,CA,95132,1150000,4,2.0,SAN JOSE,1305,6072,1972,310,881,,Sold,,,http://www.redfin.com/CA/San-Jose/2668-Carlo-Scimeca-Dr-95132/home/937478,MLSListings,ML81749580,N,Y,37.3929319,-121.8598413
PAST SALE,June-19-2019,Single Family Residential,2715 Gomes Dr,SAN JOSE,CA,95132,850000,3,2.0,SAN JOSE,1274,6122,1928,291,667,,Sold,,,http://www.redfin.com/CA/San-Jose/2715-Gomes-Dr-95132/home/938324,MLSListings,ML81743126,N,Y,37.3979115,-121.8627766
PAST SALE,December-16-2019,Single Family Residential,2847 Helmsley Dr,SAN JOSE,CA,95132,1450000,5,3.0,SAN JOSE,2533,6046,1973,111,572,,Sold,,,http://www.redfin.com/CA/San-Jose/2847-Helmsley-Dr-95132/home/1155339,MLSListings,ML81774161,N,Y,37.3886656,-121.8541484
PAST SALE,March-11-2020,Townhouse,2610 Sierra Village Ct,SAN JOSE,CA,95132,925000,2,2.5,SAN JOSE,1430,1894,1981,25,647,367,Sold,,,http://www.redfin.com/CA/San-Jose/2610-Sierra-Village-Ct-95132/home/1771022,MLSListings,ML81782359,N,Y,37.39275,-121.857475
PAST SALE,July-29-2019,Single Family Residential,1345 Vance Dr,SAN JOSE,CA,95132,1220000,4,2.0,SAN JOSE,1675,6891,1974,251,728,,Sold,,,http://www.redfin.com/CA/San-Jose/1345-Vance-Dr-95132/home/775819,MLSListings,ML81758568,N,Y,37.4027904,-121.8452558
PAST SALE,June-14-2019,Single Family Residential,5148 Felter Rd,SAN JOSE,CA,95132,1650000,5,3.5,SAN JOSE,3869,127101,1988,296,426,,Sold,,,http://www.redfin.com/CA/San-Jose/5148-Felter-Rd-95132/home/147102196,MLSListings,ML81745659,N,Y,37.431989,-121.8161139
PAST SALE,April-16-2019,Single Family Residential,745 Lariat Ln,SAN JOSE,CA,95132,1500000,3,2.0,SAN JOSE,1828,43346,1965,355,821,,Sold,,,http://www.redfin.com/CA/San-Jose/745-Lariat-Ln-95132/home/1262648,MLSListings,ML81742759,N,Y,37.3978798,-121.8196288
PAST SALE,May-31-2019,Single Family Residential,2889 Rosario Dr,San Jose,CA,95132,1155000,3,2.0,Berryessa,1412,5954,1970,310,818,,Sold,,,http://www.redfin.com/CA/San-Jose/2889-Rosario-Dr-95132/home/1783801,Bridge MLS,40862592,N,Y,37.407556,-121.8760735
PAST SALE,,Condo/Co-op,3372 Landess Ave Unit A,San Jose,CA,95132,630000,3,2.0,,1130,,1970,,558,,,,,http://www.redfin.com/CA/San-Jose/3372-Landess-Ave-95132/unit-A/home/571836,,,N,Y,37.4210083,-121.8627766
PAST SALE,September-20-2019,Townhouse,1907 Baywood Sq,SAN JOSE,CA,95132,845000,4,2.5,SAN JOSE,1452,1668,1974,198,582,380,Sold,,,http://www.redfin.com/CA/San-Jose/1907-Baywood-Sq-95132/home/1087104,MLSListings,ML81764084,N,Y,37.4094275,-121.8629402
PAST SALE,September-30-2019,Single Family Residential,1446 Sierra Creek Way,SAN JOSE,CA,95132,1130000,3,2.0,SAN JOSE,1446,6832,1963,188,781,,Sold,,,http://www.redfin.com/CA/San-Jose/1446-Sierra-Creek-Way-95132/home/935786,MLSListings,ML81764898,N,Y,37.4063598,-121.8520135
PAST SALE,,Condo/Co-op,1918 Vinedale Sq,San Jose,CA,95132,775000,4,3.0,,1452,,1972,,534,,,,,http://www.redfin.com/CA/San-Jose/1918-Vinedale-Sq-95132/home/1606084,,,N,Y,37.411292,-121.860155
PAST SALE,November-11-2019,Single Family Residential,3281 Woody Ln,SAN JOSE,CA,95132,1165000,4,2.5,SAN JOSE,1868,5992,1966,146,624,,Sold,,,http://www.redfin.com/CA/San-Jose/3281-Woody-Ln-95132/home/572491,MLSListings,ML81770547,N,Y,37.4133957,-121.8642443
PAST SALE,January-14-2020,Townhouse,1923 Baywood Sq,SAN JOSE,CA,95132,888000,4,2.5,SAN JOSE,1452,1616,1974,82,612,380,Sold,,,http://www.redfin.com/CA/San-Jose/1923-Baywood-Sq-95132/home/934256,MLSListings,ML81776922,Y,Y,37.4099629,-121.8631372
PAST SALE,July-1-2019,Single Family Residential,1780 Queenstown Dr,SAN JOSE,CA,95132,1085000,3,2.0,SAN JOSE,1577,7025,1972,279,688,,Sold,,,http://www.redfin.com/CA/San-Jose/1780-Queenstown-Dr-95132/home/1700780,MLSListings,ML81753098,N,Y,37.405993,-121.8624431
PAST SALE,April-10-2019,Single Family Residential,,SAN JOSE,CA,95132,1048000,3,2.0,SAN JOSE,1453,6072,1969,361,721,,Sold,,,http://www.redfin.com/CA/San-Jose/Victor-Ct-95132/home/1159637,MLSListings,ML81740664,N,Y,37.4071995,-121.8581068
PAST SALE,August-2-2019,Single Family Residential,3157 Balmoral Dr,SAN JOSE,CA,95132,1290000,4,2.0,SAN JOSE,1480,7083,1975,247,872,,Sold,,,http://www.redfin.com/CA/San-Jose/3157-Balmoral-Dr-95132/home/1017653,MLSListings,ML81752088,N,Y,37.4086852,-121.8617315
PAST SALE,July-16-2019,Single Family Residential,15221 Camelot Dr,SAN JOSE,CA,95132,1300000,4,3.0,SAN JOSE,2545,44997,1958,264,511,,Sold,,,http://www.redfin.com/CA/San-Jose/15221-Camelot-Dr-95132/home/1730768,MLSListings,ML81752050,N,Y,37.4031374,-121.8364451
PAST SALE,September-9-2019,Single Family Residential,1802 Trudean Way,SAN JOSE,CA,95132,1300000,3,2.0,SAN JOSE,1838,5896,1976,209,707,,Sold,,,http://www.redfin.com/CA/San-Jose/1802-Trudean-Way-95132/home/937161,MLSListings,ML81763928,N,Y,37.4039504,-121.8706927
PAST SALE,October-4-2019,Single Family Residential,2946 Cohansey Dr,SAN JOSE,CA,95132,1006000,3,2.0,SAN JOSE,1084,6395,1970,184,928,,Sold,,,http://www.redfin.com/CA/San-Jose/2946-Cohansey-Dr-95132/home/1636265,MLSListings,ML81750266,N,Y,37.4065936,-121.8712708
PAST SALE,April-30-2019,Single Family Residential,,SAN JOSE,CA,95132,2000000,4,3.5,SAN JOSE,4107,596772,1991,341,487,,Sold,,,http://www.redfin.com/CA/San-Jose/Sierra-Rd-95132/home/1761542,MLSListings,ML81717946,N,Y,37.40805,-121.770495
PAST SALE,July-18-2019,Single Family Residential,3344 Cavendish Dr,SAN JOSE,CA,95132,1185000,3,2.0,SAN JOSE,1372,6561,1976,262,864,,Sold,,,http://www.redfin.com/CA/San-Jose/3344-Cavendish-Dr-95132/home/1770984,MLSListings,ML81747476,N,Y,37.4128821,-121.8601971
PAST SALE,August-19-2019,Single Family Residential,2833 Babe Ruth Dr,SAN JOSE,CA,95132,1045000,4,2.0,SAN JOSE,1457,6301,1973,230,717,,Sold,,,http://www.redfin.com/CA/San-Jose/2833-Babe-Ruth-Dr-95132/home/1781461,MLSListings,ML81752562,N,Y,37.4053538,-121.8726494
PAST SALE,August-19-2019,Single Family Residential,1296 Arabelle Way,SAN JOSE,CA,95132,1210000,4,2.5,SAN JOSE,2201,4492,2001,230,550,,Sold,,,http://www.redfin.com/CA/San-Jose/1296-Arabelle-Way-95132/home/938547,MLSListings,ML81758335,N,Y,37.3988488,-121.8484997
PAST SALE,August-27-2019,Single Family Residential,2728 Camino Del Rey,SAN JOSE,CA,95132,1617500,5,3.5,SAN JOSE,3003,10881,1964,222,539,,Sold,,,http://www.redfin.com/CA/San-Jose/2728-Camino-Del-Rey-95132/home/1539117,MLSListings,ML81760411,N,Y,37.3953115,-121.8673129
PAST SALE,November-20-2019,Single Family Residential,3040 Crater Ln,SAN JOSE,CA,95132,1170000,4,2.0,SAN JOSE,1393,5953,1972,137,840,,Sold,,,http://www.redfin.com/CA/San-Jose/3040-Crater-Ln-95132/home/833989,MLSListings,ML81769095,N,Y,37.3982181,-121.8556161
PAST SALE,December-5-2019,Single Family Residential,3414 Pinnacle Dr,SAN JOSE,CA,95132,1250000,4,2.5,SAN JOSE,1935,7519,1974,122,646,,Sold,,,http://www.redfin.com/CA/San-Jose/3414-Pinnacle-Dr-95132/home/941481,MLSListings,ML81766491,N,Y,37.4044024,-121.8453861
PAST SALE,February-7-2020,Single Family Residential,1972 N Capitol Ave,SAN JOSE,CA,95132,890000,4,2.0,SAN JOSE,1427,4991,1973,58,624,15,Sold,,,http://www.redfin.com/CA/San-Jose/1972-N-Capitol-Ave-95132/home/1651274,MLSListings,ML81778044,N,Y,37.404563,-121.88347
PAST SALE,February-7-2020,Single Family Residential,2763 Longford Dr,SAN JOSE,CA,95132,1182000,4,3.0,SAN JOSE,1572,6642,1964,58,752,,Sold,,,http://www.redfin.com/CA/San-Jose/2763-Longford-Dr-95132/home/938057,MLSListings,ML81778480,N,Y,37.396597,-121.8675352
PAST SALE,May-28-2019,Single Family Residential,3819 Steinbaugh Ct,SAN JOSE,CA,95132,1350000,5,3.0,SAN JOSE,2050,17408,1965,313,659,,Sold,,,http://www.redfin.com/CA/San-Jose/3819-Steinbaugh-Ct-95132/home/1435449,MLSListings,ML81749027,N,Y,37.4011029,-121.8270585
PAST SALE,January-16-2020,Single Family Residential,3900 Sophist Dr,SAN JOSE,CA,95132,1625300,5,3.0,SAN JOSE,2855,15256,1964,80,569,,Sold,,,http://www.redfin.com/CA/San-Jose/3900-Sophist-Dr-95132/home/1406605,MLSListings,ML81776886,N,Y,37.4016756,-121.8244559
PAST SALE,July-5-2019,Townhouse,3484 Prince Phillip Ct,SAN JOSE,CA,95132,785000,3,2.5,SAN JOSE,1474,1027,1973,275,533,235,Sold,,,http://www.redfin.com/CA/San-Jose/3484-Prince-Philip-Ct-95132/home/930491,MLSListings,ML81751450,N,Y,37.413829,-121.852662
PAST SALE,June-28-2019,Single Family Residential,3194 Mattos Ave,SAN JOSE,CA,95132,1440000,5,3.5,SAN JOSE,2231,6100,1970,282,645,,Sold,,,http://www.redfin.com/CA/San-Jose/3194-Mattos-Ave-95132/home/1231839,MLSListings,ML81742963,N,Y,37.4030651,-121.8534812
PAST SALE,July-23-2019,Townhouse,1892 Shilling Ct,SAN JOSE,CA,95132,670000,3,1.5,SAN JOSE,1176,900,1971,257,570,240,Sold,,,http://www.redfin.com/CA/San-Jose/1892-Shilling-Ct-95132/home/1432833,MLSListings,ML81757348,N,Y,37.413663,-121.854071
PAST SALE,July-27-2019,Single Family Residential,3050 Crater Ln,SAN JOSE,CA,95132,1120830,4,2.0,SAN JOSE,1305,6033,1972,253,859,,Sold,,,http://www.redfin.com/CA/San-Jose/3050-Crater-Ln-95132/home/1455178,MLSListings,ML81757135,N,Y,37.3983623,-121.8552603
PAST SALE,August-2-2019,Single Family Residential,3643 Tunis Ave,SAN JOSE,CA,95132,1073000,4,2.0,SAN JOSE,1598,6444,1970,247,671,,Sold,,,http://www.redfin.com/CA/San-Jose/3643-Tunis-Ave-95132/home/1465208,MLSListings,ML81758214,N,Y,37.4183029,-121.8567725
PAST SALE,November-26-2019,Single Family Residential,3245 Desertwood Ln,SAN JOSE,CA,95132,998000,3,2.0,SAN JOSE,1570,5985,1967,131,636,,Sold,,,http://www.redfin.com/CA/San-Jose/3245-Desertwood-Ln-95132/home/1100905,MLSListings,ML81767824,N,Y,37.4145083,-121.8663567
PAST SALE,December-27-2019,Single Family Residential,3135 Hostetter Rd,SAN JOSE,CA,95132,1180000,4,3.0,SAN JOSE,1859,7600,1972,100,635,,Sold,,,http://www.redfin.com/CA/San-Jose/3135-Hostetter-Rd-95132/home/935679,MLSListings,ML81772714,N,Y,37.4054596,-121.8587739
PAST SALE,March-19-2020,Single Family Residential,3206 Zion Ln,SAN JOSE,CA,95132,1290000,3,2.0,SAN JOSE,1252,6028,1960,17,1030,,Sold,,,http://www.redfin.com/CA/San-Jose/3206-Zion-Ln-95132/home/556118,MLSListings,ML81781663,N,Y,37.399617,-121.8503233
PAST SALE,April-12-2019,Single Family Residential,3354 Onslow Way,SAN JOSE,CA,95132,1327000,4,2.0,SAN JOSE,1408,7725,1974,359,942,,Sold,,,http://www.redfin.com/CA/San-Jose/3354-Onslow-Way-95132/home/1553385,MLSListings,ML81742760,N,Y,37.3990598,-121.8451636
PAST SALE,June-12-2019,Single Family Residential,2945 Berryessa Rd,SAN JOSE,CA,95132,1326000,4,2.5,SAN JOSE,2150,6601,1970,298,617,,Sold,,,http://www.redfin.com/CA/San-Jose/2945-Berryessa-Rd-95132/home/940100,MLSListings,ML81750159,N,Y,37.3915935,-121.852903
PAST SALE,,Single Family Residential,1674 Wickham Rd,San Jose,CA,95132,1305000,4,2.0,,1598,6148,1972,,817,,,,,http://www.redfin.com/CA/San-Jose/1674-Wickham-Rd-95132/home/1609770,,,N,Y,37.4034378,-121.8625098
PAST SALE,May-22-2019,Single Family Residential,1708 Morrill Ave,SAN JOSE,CA,95132,1220000,4,2.5,SAN JOSE,1710,6539,1970,319,713,,Sold,,,http://www.redfin.com/CA/San-Jose/1708-Morrill-Ave-95132/home/1017646,MLSListings,ML81747312,N,Y,37.4027235,-121.8652671
PAST SALE,April-25-2019,Condo/Co-op,1902 Tradan Dr,SAN JOSE,CA,95132,610000,2,2.0,SAN JOSE,966,1888,1987,346,631,375,Sold,,,http://www.redfin.com/CA/San-Jose/1902-Tradan-Dr-95132/home/965219,MLSListings,ML81737648,N,Y,37.400509,-121.884103
PAST SALE,March-26-2020,Single Family Residential,1251 Burnham Dr,SAN JOSE,CA,95132,1140000,4,2.0,SAN JOSE,1517,6297,1962,10,751,,Sold,,,http://www.redfin.com/CA/San-Jose/1251-Burnham-Dr-95132/home/1159776,MLSListings,ML81782862,N,Y,37.3948326,-121.8545042
PAST SALE,May-28-2019,Single Family Residential,1352 Cutforth Ct,SAN JOSE,CA,95132,1320000,4,2.5,SAN JOSE,1769,6559,1984,313,746,,Sold,,,http://www.redfin.com/CA/San-Jose/1352-Cutforth-Ct-95132/home/1759027,MLSListings,ML81748774,N,Y,37.3964193,-121.8594855
PAST SALE,June-10-2019,Single Family Residential,2734 Royalvale Way,SAN JOSE,CA,95132,1090000,3,2.0,SAN JOSE,1041,6070,1974,300,1047,,Sold,,,http://www.redfin.com/CA/San-Jose/2734-Royalvale-Way-95132/home/1412277,MLSListings,ML81749898,N,Y,37.4058426,-121.8800311
PAST SALE,June-5-2019,Multi-Family (5+ Unit),1236 Quincy Dr,SAN JOSE,CA,95132,1500000,,,SAN JOSE,5114,10238,1973,305,293,,Sold,,,http://www.redfin.com/CA/San-Jose/1236-Quincy-Dr-95132/home/1017699,MLSListings,ML81744036,N,Y,37.3972335,-121.8484997
PAST SALE,June-12-2019,Single Family Residential,3511 Suncrest Ave,SAN JOSE,CA,95132,1370000,4,2.5,SAN JOSE,2528,8715,1965,298,542,,Sold,,,http://www.redfin.com/CA/San-Jose/3511-Suncrest-Ave-95132/home/1666456,MLSListings,ML81749860,N,Y,37.3988343,-121.8382689
PAST SALE,June-28-2019,Single Family Residential,3072 Zion Ln,SAN JOSE,CA,95132,1165000,5,3.0,SAN JOSE,2244,6344,1964,282,519,,Sold,,,http://www.redfin.com/CA/San-Jose/3072-Zion-Ln-95132/home/796140,MLSListings,ML81746947,N,Y,37.3980486,-121.853926
PAST SALE,July-10-2019,Single Family Residential,3106 Leisure Ct,SAN JOSE,CA,95132,1475000,4,2.5,SAN JOSE,2510,8001,1971,270,588,,Sold,,,http://www.redfin.com/CA/San-Jose/3106-Leisure-Ct-95132/home/1688124,MLSListings,ML81753093,N,Y,37.3958726,-121.851035
PAST SALE,September-17-2019,Condo/Co-op,2745 Somerset Park Cir,SAN JOSE,CA,95132,595000,2,2.0,SAN JOSE,831,931,1988,201,716,330,Sold,,,http://www.redfin.com/CA/San-Jose/2745-Somerset-Park-Cir-95132/home/2124779,MLSListings,ML81763544,N,Y,37.395576,-121.861334
PAST SALE,September-25-2019,Single Family Residential,2981 Postwood Dr,SAN JOSE,CA,95132,1030000,5,3.0,SAN JOSE,1786,6099,1964,193,577,,Sold,,,http://www.redfin.com/CA/San-Jose/2981-Postwood-Dr-95132/home/1511686,MLSListings,ML81762822,N,Y,37.4123943,-121.8754792
PAST SALE,,Single Family Residential,1358 Morrill Ave,San Jose,CA,95132,454500,,,,,10297,,,,,,,,http://www.redfin.com/CA/San-Jose/1358-Morrill-Ave-95132/home/95957367,,,N,Y,37.3961493,-121.8601513
PAST SALE,September-25-2019,Single Family Residential,2665 Plaza Claveles,SAN JOSE,CA,95132,1025000,4,2.0,SAN JOSE,1659,5962,1967,193,618,,Sold,,,http://www.redfin.com/CA/San-Jose/2665-Plaza-Claveles-95132/home/936267,MLSListings,ML81761371,N,Y,37.403085,-121.8782079
PAST SALE,July-11-2019,Single Family Residential,1853 Camacho Way,San Jose,CA,95132,1100000,3,2.0,San Jose,1298,6000,1973,269,847,,Sold,,,http://www.redfin.com/CA/San-Jose/1853-Camacho-Way-95132/home/796153,Bridge MLS,40851071,N,Y,37.404402,-121.8746949
